City_ID,City,Lat,Lng,Max Temp,Humidity,Cloudiness,Wind Speed,Country,Date
0,opuwo,-18.0607,13.84,32.35,14,13,4.7,NA,1683034517
1,sibut,5.718,19.0739,35.04,32,97,2.22,CF,1683034517
2,yulinshi,38.2906,109.7494,20.76,42,76,7.14,CN,1683034517
3,bikenibeu village,1.3673,173.1241,27.98,83,75,1.03,KI,1683034517
4,waitangi,-43.9535,-176.5597,14.34,90,0,2.24,NZ,1683034518
5,necochea,-38.5473,-58.7368,13.81,48,0,3.77,AR,1683034518
6,abashiri,44.0213,144.2697,7.75,81,0,4.27,JP,1683034518
7,puerto natales,-51.7236,-72.4875,9.25,49,75,19.55,CL,1683034518
8,talcahuano,-36.7167,-73.1167,6.82,93,0,1.54,CL,1683034355
9,dolores,-36.3132,-57.6792,14.98,31,0,3.09,AR,1683034519
10,karratha,-20.7377,116.8463,26.19,55,8,1.9,AU,1683034519
11,port alfred,-33.5906,26.891,20.1,82,100,1.34,ZA,1683034519
12,tura,25.5198,90.2201,22.12,71,56,0.68,IN,1683034519
13,flekkefjord,58.2971,6.6607,10.53,54,64,7.28,NO,1683034520
14,ladik,40.9106,35.8919,13.49,62,59,4.07,TR,1683034520
15,ushuaia,-54.8,-68.3,5.79,87,75,3.09,AR,1683034520
16,enewetak,11.3474,162.3373,27.05,81,98,9.49,MH,1683034520
17,haiku-pauwela,20.9219,-156.3051,21.69,86,0,2.57,US,1683034521
18,vilyuchinsk,52.9306,158.4028,2.15,87,96,2.25,RU,1683034521
19,uturoa,-16.7333,-151.4333,27.74,79,100,7.57,PF,1683034521
20,albany,42.6001,-73.9662,9.89,80,100,0.45,US,1683034521
21,bethel,41.3712,-73.414,10.2,88,100,3.09,US,1683034522
22,ribeira grande,38.5167,-28.7,17.22,67,20,6.71,PT,1683034522
23,margaret river,-33.95,115.0667,12.54,83,0,3.98,AU,1683034522
24,hawaiian paradise park,19.5933,-154.9731,20.73,88,0,2.57,US,1683034522
25,adamstown,-25.066,-130.1015,24.91,76,5,7.24,PN,1683034523
26,taltal,-25.4,-70.4833,18.18,72,6,1.82,CL,1683034523
27,el nido,11.1858,119.3956,28.77,78,100,4.72,PH,1683034523
28,beihai,21.4833,109.1,25.6,86,46,5.63,CN,1683034523
29,kenai,60.5544,-151.2583,2.3,82,100,3.6,US,1683034523
30,columbia falls,48.3725,-114.1815,12.73,55,0,2.57,US,1683034398
31,al kharijah,25.4514,30.5464,33.51,12,0,5.49,EG,1683034524
32,myitkyina,25.3833,97.4,20.02,93,45,1.71,MM,1683034524
33,la passe,45.5549,-0.8967,21.13,53,87,4.73,FR,1683034524
34,grytviken,-54.2811,-36.5092,-0.46,85,99,2.79,GS,1683034524
35,sokoni,-6.4333,39.55,28.92,72,29,8.59,TZ,1683034525
36,yazoo city,32.8551,-90.4056,15.51,54,0,2.17,US,1683034323
37,utrik,11.2278,169.8474,26.88,79,100,9.62,MH,1683034525
38,port-aux-francais,-49.35,70.2167,3.62,78,90,8.2,TF,1683034525
39,bogale,16.2833,95.4,30.03,61,13,3.82,MM,1683034525
40,aykhal,66.0,111.5,-13.85,96,18,3.17,RU,1683034526
41,pretoria,-25.7449,28.1878,26.43,48,96,4.12,ZA,1683034282
42,blackmans bay,-43.0167,147.3167,7.61,93,97,1.57,AU,1683034526
43,port mathurin,-19.6833,63.4167,26.1,77,17,4.95,MU,1683034526
44,hithadhoo,-0.6,73.0833,26.96,81,100,5.94,MV,1683034526
45,bayganin,48.6947,55.8742,24.59,31,100,8.31,KZ,1683034527
46,bredasdorp,-34.5322,20.0403,18.76,67,99,3.62,ZA,1683034527
47,natal,-5.795,-35.2094,29.36,70,40,5.14,BR,1683034527
48,west island,-12.1568,96.8225,27.99,83,40,7.72,CC,1683034527
49,jingmen,31.0336,112.2047,20.85,87,100,3.65,CN,1683034527
50,fort bragg,35.139,-79.006,18.23,50,0,5.14,US,1683034528
51,kolonia,50.9333,6.95,13.79,62,75,4.12,DE,1683034528
52,chul'man,56.8479,124.9104,1.08,100,100,0.82,RU,1683034528
53,aasiaat,68.7098,-52.8699,-5.43,79,8,3.97,GL,1683034528
54,stanley,54.868,-1.6985,10.95,79,75,2.57,GB,1683034529
55,college,64.8569,-147.8028,1.99,81,75,3.09,US,1683034529
56,whitehorse,60.7161,-135.0538,6.43,65,75,7.2,CA,1683034529
57,buka,40.8108,69.1986,22.23,33,0,4.79,UZ,1683034529
58,papatowai,-46.5619,169.4708,13.68,85,100,2.52,NZ,1683034530
59,fisterra,42.9049,-9.2629,23.9,67,100,1.94,ES,1683034530
60,fortuna,40.5982,-124.1573,8.85,94,99,1.02,US,1683034530
61,iqaluit,63.7506,-68.5145,-0.15,86,100,10.73,CA,1683034530
62,punta arenas,-53.15,-70.9167,7.06,70,75,11.83,CL,1683034530
63,manta,-0.95,-80.7333,25.88,83,75,0.0,EC,1683034284
64,hermanus,-34.4187,19.2345,17.67,78,65,2.77,ZA,1683034531
65,avarua,-21.2078,-159.775,22.03,88,75,4.63,CK,1683034531
66,acapulco de juarez,16.8634,-99.8901,23.9,78,20,2.06,MX,1683034531
67,coahuayana de hidalgo,18.7,-103.6583,26.06,35,0,1.0,MX,1683034532
68,canutama,-6.5339,-64.3831,26.72,83,99,1.27,BR,1683034532
69,campofelice di roccella,37.9902,13.8854,16.99,83,100,0.89,IT,1683034532
70,inebolu,41.9747,33.7608,13.37,55,1,1.77,TR,1683034532
71,ugoofaaru,5.6667,73.0,29.24,73,100,8.05,MV,1683034533
72,san carlos del zulia,9.0,-71.9135,29.28,71,8,1.55,VE,1683034533
73,okhotsk,59.3833,143.3,-1.04,89,100,1.79,RU,1683034533
74,touros,-5.1989,-35.4608,29.91,61,34,5.1,BR,1683034533
75,wailua homesteads,22.0669,-159.378,21.44,90,75,1.54,US,1683034533
76,monrovia,6.3005,-10.7969,31.87,69,97,2.37,LR,1683034534
77,myeik,12.4333,98.6,26.12,86,100,2.17,MM,1683034534
78,vorkuta,67.5,64.0,1.79,100,100,8.99,RU,1683034534
79,puerto lempira,15.2667,-83.7667,27.08,78,20,2.06,HN,1683034536
80,kodiak,57.79,-152.4072,3.73,81,100,7.72,US,1683034400
81,yeppoon,-23.1333,150.7333,16.88,77,4,2.33,AU,1683034537
82,olonkinbyen,70.9221,-8.7187,-1.85,57,54,1.75,SJ,1683034537
83,ust'-ilimsk,58.0006,102.6619,0.01,98,100,3.82,RU,1683034537
84,vorgashor,67.5833,63.95,1.57,100,100,9.04,RU,1683034537
85,afaahiti,-17.75,-149.2833,24.93,83,100,8.04,PF,1683034538
86,holualoa,19.6228,-155.9522,21.91,84,75,3.09,US,1683034538
87,constantia,44.1833,28.65,17.38,68,0,4.87,RO,1683034538
88,saldanha,-33.0117,17.9442,17.46,83,41,6.15,ZA,1683034538
89,aden,12.7794,45.0367,30.74,71,99,2.84,YE,1683034539
90,kyosai,34.8503,128.5886,13.98,68,100,1.32,KR,1683034539
91,vadso,70.0744,29.7487,0.49,59,20,10.8,NO,1683034539
92,georgetown,5.4112,100.3354,26.96,93,40,1.54,MY,1683034499
93,sinop,41.7711,34.8709,10.24,63,46,3.85,TR,1683034539
94,tazovsky,67.4667,78.7,-1.79,76,100,8.06,RU,1683034540
95,puerto wilches,7.3483,-73.896,29.31,84,80,0.84,CO,1683034540
96,katsuura,35.1333,140.3,14.62,60,0,3.24,JP,1683034540
97,ijebu-ife,6.7784,4.0339,29.06,73,99,2.36,NG,1683034540
98,mandera,3.9366,41.867,32.21,48,53,5.29,KE,1683034540
99,iskateley,67.6803,53.1512,1.4,87,97,10.92,RU,1683034541
100,udachny,66.4167,112.4,-11.85,91,16,2.43,RU,1683034541
101,beberibe,-4.1797,-38.1306,29.09,64,32,3.71,BR,1683034541
102,cururupu,-1.8283,-44.8683,29.83,68,88,2.23,BR,1683034541
103,magaramkent,41.6159,48.348,12.48,77,100,1.93,RU,1683034541
104,bereznik,62.8551,42.7072,11.63,43,100,4.2,RU,1683034541
105,kargasok,59.0556,80.8572,2.77,77,100,3.27,RU,1683034542
106,marquette,46.5333,-87.6335,-0.31,94,100,5.81,US,1683034542
107,sao felix do xingu,-6.6447,-51.995,27.1,76,100,0.14,BR,1683034542
108,yellowknife,62.456,-114.3525,2.29,93,20,1.54,CA,1683034537
109,pacific grove,36.6177,-121.9166,9.45,92,100,1.54,US,1683034389
110,isafjordur,66.0755,-23.124,4.02,52,0,2.06,IS,1683034543
111,qandala,11.472,49.8728,30.2,72,28,2.38,SO,1683034543
112,bilibino,68.0546,166.4372,-19.18,95,38,2.41,RU,1683034543
113,port lincoln,-34.7333,135.8667,16.28,75,51,9.02,AU,1683034543
114,fale old settlement,-9.3852,-171.2468,29.0,74,100,7.29,TK,1683034543
115,conduaga,8.862,117.4893,27.01,82,36,1.89,PH,1683034544
116,qala i naw,34.9874,63.1289,28.06,16,11,3.88,AF,1683034544
117,sri dungargarh,28.0833,74.0167,30.71,30,100,3.71,IN,1683034544
118,east london,-33.0153,27.9116,21.34,70,67,4.72,ZA,1683034544
119,lompoc,34.6391,-120.4579,9.77,86,40,3.09,US,1683034320
120,dzhambeyty,50.2536,52.595,26.26,25,48,7.75,KZ,1683034545
121,dukhovnitskoye,52.4828,48.2137,11.5,93,100,4.99,RU,1683034545
122,baturite,-4.3286,-38.8847,28.98,66,61,2.35,BR,1683034545
123,kerikeri,-35.2268,173.9474,19.95,95,100,1.81,NZ,1683034545
124,puerto ayora,-0.7393,-90.3518,26.97,90,13,2.24,EC,1683034545
125,chetwayi,10.5333,76.05,28.19,77,75,3.25,IN,1683034546
126,tiksi,71.6872,128.8694,-11.07,97,100,2.52,RU,1683034546
127,palu,-0.8917,119.8707,25.62,94,100,1.19,ID,1683034546
128,perene,-10.9492,-75.2261,26.17,70,25,0.75,PE,1683034546
129,hitchcock,29.3483,-95.016,24.44,92,0,2.57,US,1683034546
130,mount pleasant,32.7941,-79.8626,18.89,47,0,5.14,US,1683034406
131,tutoia,-2.7619,-42.2744,30.01,60,26,2.4,BR,1683034547
132,lazaro cardenas,17.9583,-102.2,25.45,55,0,1.99,MX,1683034502
133,mahina,-17.5065,-149.489,25.87,78,75,1.54,PF,1683034547
134,kazanskoye,55.6448,69.235,12.67,29,9,1.67,RU,1683034547
135,bukama,-9.2,25.85,29.17,49,51,0.16,CD,1683034548
136,bizerte,37.2744,9.8739,19.0,72,40,10.29,TN,1683034548
137,daru,-9.0763,143.2092,26.53,90,100,5.61,PG,1683034548
138,kuanda,56.3161,116.0806,-0.5,94,100,3.69,RU,1683034548
139,mount carmel,38.4109,-87.7614,11.89,61,2,7.71,US,1683034548
140,nemuro,43.3236,145.575,4.37,86,1,6.75,JP,1683034548
141,chonchi,-42.6128,-73.8092,8.4,84,35,1.11,CL,1683034549
142,suntar,62.1444,117.6319,-0.18,98,100,3.72,RU,1683034549
143,port elizabeth,-33.918,25.5701,22.83,70,0,5.66,ZA,1683034549
144,lerwick,60.1545,-1.1494,9.0,61,96,5.38,GB,1683034549
145,dunedin,-45.8742,170.5036,19.48,53,77,3.36,NZ,1683034550
146,hozat,39.1083,39.2213,10.73,36,32,5.61,TR,1683034550
147,kone,-21.0595,164.8658,23.48,91,82,1.81,NC,1683034550
148,brookings,44.3114,-96.7984,5.03,70,0,6.17,US,1683034550
149,nouadhibou,20.931,-17.0347,26.99,50,66,5.66,MR,1683034550
150,pimenta bueno,-11.6725,-61.1936,28.67,71,13,1.17,BR,1683034551
151,zhangjiakou,40.81,114.8794,20.95,37,41,3.17,CN,1683034551
152,tolanaro,-25.0319,46.9987,24.04,53,40,4.12,MG,1683034551
153,chibougamau,49.9168,-74.3659,4.79,87,100,3.6,CA,1683034346
154,rehoboth,-23.3167,17.0833,24.52,35,86,8.24,NA,1683034551
155,ha'il,27.5219,41.6907,31.01,15,0,2.06,SA,1683034552
156,saipan,15.1355,145.701,27.39,100,40,5.14,MP,1683034552
157,preobrazheniye,42.9019,133.9064,8.47,64,100,3.66,RU,1683034552
158,kangding,30.0513,101.9603,11.76,94,90,2.27,CN,1683034552
159,san antonio de pale,-1.4014,5.6325,27.92,75,100,2.85,GQ,1683034552
160,broken hill,-31.95,141.4333,15.08,54,0,2.63,AU,1683034553
161,ribeira brava,32.65,-17.0667,27.06,60,2,2.59,PT,1683034553
162,breyten,-26.3018,29.987,17.26,60,99,3.73,ZA,1683034425
163,coxim,-18.5067,-54.76,28.34,60,1,2.32,BR,1683034553
164,longyearbyen,78.2186,15.6401,-10.09,52,0,2.57,SJ,1683034553
165,tromso,69.6496,18.957,-0.35,69,100,8.23,NO,1683034297
166,chudovo,59.1167,31.6833,14.67,47,100,7.26,RU,1683034554
167,tadine,-21.55,167.8833,24.73,87,60,4.15,NC,1683034554
168,amol,36.4696,52.3507,16.72,80,79,1.51,IR,1683034554
169,coquimbo,-29.9533,-71.3436,12.85,82,0,2.06,CL,1683034275
170,qaqortoq,60.7167,-46.0333,3.56,57,100,0.92,GL,1683034554
171,flying fish cove,-10.4217,105.6791,24.82,100,5,0.0,CX,1683034555
172,kailua-kona,19.6406,-155.9956,23.98,84,75,3.09,US,1683034555
173,praia da vitoria,38.7333,-27.0667,18.14,63,40,7.71,PT,1683034555
174,edinburgh of the seven seas,-37.0676,-12.3116,17.14,80,99,10.59,SH,1683034555
175,new norfolk,-42.7826,147.0587,8.27,68,99,1.03,AU,1683034555
176,codrington,-38.2667,141.9667,11.69,91,86,7.98,AU,1683034556
177,robit,12.0167,39.6333,23.8,62,99,2.01,ET,1683034556
178,polyarnyy,69.1989,33.4478,0.2,68,64,8.92,RU,1683034556
179,vallenar,-28.5708,-70.7581,19.85,50,0,1.28,CL,1683034556
180,ta`u,-14.2336,-169.5144,27.34,79,78,10.98,AS,1683034556
181,lihue,21.9789,-159.3672,21.77,90,75,1.54,US,1683034557
182,villa de arista,22.65,-100.8333,18.45,20,1,5.44,MX,1683034557
183,carnarvon,-24.8667,113.6333,23.62,65,33,5.22,AU,1683034558
184,petropavlovsk-kamchatsky,53.0452,158.6483,1.33,80,75,1.0,RU,1683034259
185,quellon,-43.1167,-73.6167,7.14,93,100,0.0,CL,1683034558
186,ust-nera,64.5667,143.2,-5.46,95,100,0.49,RU,1683034558
187,joshimath,30.5667,79.5667,11.93,95,100,0.7,IN,1683034559
188,minas de marcona,-15.2119,-75.1103,17.39,71,27,6.91,PE,1683034559
189,happy valley-goose bay,53.3168,-60.3315,5.17,65,75,4.12,CA,1683034559
190,jianshui,23.6363,102.8264,19.82,77,42,2.16,CN,1683034559
191,menongue,-14.6585,17.691,28.55,21,13,2.88,AO,1683034560
192,luderitz,-26.6481,15.1594,20.12,52,10,7.58,NA,1683034560
193,thompson,55.7435,-97.8558,4.09,56,40,2.57,CA,1683034385
194,manaure,11.7751,-72.4445,31.11,58,16,9.06,CO,1683034561
195,nantucket,41.2835,-70.0995,15.05,71,0,6.69,US,1683034561
196,nishinoomote,30.7333,131.0,19.2,52,3,5.19,JP,1683034561
197,pervomayskoye,43.919,46.7102,16.81,55,100,5.85,RU,1683034561
198,puerto baquerizo moreno,-0.9,-89.6,25.55,89,40,2.06,EC,1683034562
199,mutare,-18.9707,32.6709,23.74,46,45,3.42,ZW,1683034562
200,myanaung,18.2833,95.3167,32.48,42,70,4.17,MM,1683034562
201,arar,30.9753,41.0381,29.01,12,0,5.66,SA,1683034562
202,mount pearl,47.5166,-52.7813,4.07,79,75,5.66,CA,1683034563
203,san clemente del tuyu,-36.3569,-56.7235,13.8,43,0,3.52,AR,1683034563
204,umm kaddadah,13.6017,26.6876,35.7,8,24,3.46,SD,1683034563
205,ancud,-41.8697,-73.8203,8.19,81,40,2.37,CL,1683034563
206,st. john's,47.5649,-52.7093,4.53,80,75,5.66,CA,1683034520
207,kapuskasing,49.4169,-82.4331,4.05,93,100,5.66,CA,1683034564
208,novovolyns'k,50.7258,24.1626,20.12,55,99,4.16,UA,1683034564
209,miri,4.4148,114.0089,27.08,89,40,1.54,MY,1683034564
210,hung yen,20.65,106.0667,24.2,93,100,2.73,VN,1683034564
211,marabba,12.35,32.1833,37.96,6,82,1.22,SD,1683034564
212,chui,-33.6971,-53.4616,17.45,52,45,3.61,UY,1683034565
213,san luis del palmar,-27.5079,-58.5545,13.97,96,100,4.02,AR,1683034565
214,hadibu,12.65,54.0333,29.99,70,74,1.13,YE,1683034565
215,berezovyy,51.6667,135.7,8.1,78,90,1.79,RU,1683034565
216,yasuj,30.6682,51.588,23.75,17,0,6.17,IR,1683034347
217,morong,14.5115,121.2393,31.01,73,67,4.48,PH,1683034566
218,ilulissat,69.2167,-51.1,1.01,51,0,2.06,GL,1683034566
219,coyhaique,-45.5752,-72.0662,4.34,81,40,0.51,CL,1683034566
220,ingeniero jacobacci,-41.3427,-69.5448,5.53,67,3,0.96,AR,1683034329
221,nar'yan-mar,67.6713,53.087,1.48,87,97,10.99,RU,1683034566
222,hamilton,39.1834,-84.5333,10.5,72,0,7.2,US,1683034567
223,vila velha,-20.3297,-40.2925,26.97,79,40,1.54,BR,1683034567
224,borba,-4.3878,-59.5939,24.2,97,100,1.23,BR,1683034567
225,saint-denis,48.9167,2.3333,19.64,68,75,4.12,FR,1683034567
226,cidreira,-30.1811,-50.2056,20.29,96,100,6.21,BR,1683034568
227,dudinka,69.4058,86.1778,-3.54,83,100,6.61,RU,1683034568
228,polewali,-3.4324,119.3435,26.53,90,100,2.23,ID,1683034568
229,ust'-kulom,61.6864,53.6902,8.01,68,100,0.62,RU,1683034568
230,mount gambier,-37.8333,140.7667,13.0,85,100,8.32,AU,1683034568
231,badger,64.8,-147.5333,1.95,83,75,3.09,US,1683034569
232,sechura,-5.5569,-80.8222,25.92,71,31,5.21,PE,1683034569
233,kapa'a,22.0752,-159.319,22.18,90,75,1.54,US,1683034569
234,brisas de zicatela,15.8369,-97.0419,25.29,73,40,0.0,MX,1683034569
235,grahamstown,-33.3042,26.5328,16.64,50,100,5.06,ZA,1683034569
236,aioun,16.6614,-9.6149,41.93,5,25,1.72,MR,1683034570
237,mirnyy,62.5353,113.9611,-4.48,98,64,2.41,RU,1683034469
238,jamestown,42.097,-79.2353,4.77,93,100,5.14,US,1683034570
239,aripuana,-9.1667,-60.6333,28.61,68,90,1.28,BR,1683034570
240,san patricio,28.017,-97.5169,24.92,83,100,5.36,US,1683034570
241,khandyga,62.6667,135.6,-1.11,96,90,1.04,RU,1683034571
242,holmsund,63.706,20.3641,9.97,37,20,4.63,SE,1683034571
243,mina clavero,-31.721,-65.0062,12.72,44,59,2.27,AR,1683034571
244,yarovoye,52.9273,78.58,5.96,38,65,4.76,RU,1683034571
245,placido de castro,-10.3353,-67.1856,30.1,62,20,1.83,BR,1683034571
246,cortez,37.3489,-108.5859,10.94,43,20,0.0,US,1683034572
247,portland,45.5234,-122.6762,13.06,83,75,0.89,US,1683034014
248,ubari,26.5921,12.7805,36.91,8,24,4.59,LY,1683034572
249,ghat,24.9647,10.1728,36.88,8,11,4.29,LY,1683034572
250,maumere,-8.6199,122.2111,26.55,82,37,2.54,ID,1683034572
251,bidar,17.9,77.55,30.53,41,68,4.67,IN,1683034573
252,talnakh,69.4865,88.3972,-3.77,86,100,3.54,RU,1683034573
253,invercargill,-46.4,168.35,14.41,89,100,2.02,NZ,1683034522
254,lebu,-37.6167,-73.65,11.76,74,0,6.06,CL,1683034574
255,amble,55.3333,-1.5833,10.73,63,100,5.66,GB,1683034574
256,ola,59.5833,151.2833,-1.03,84,64,1.35,RU,1683034574
257,kaesong,37.9708,126.5544,14.16,46,100,0.41,KP,1683034574
258,istaravshan,39.9142,69.0033,19.27,31,1,3.4,TJ,1683034574
259,la sarre,48.8002,-79.1996,5.28,83,100,5.04,CA,1683034575
260,formosa do rio preto,-11.0483,-45.1931,30.24,45,99,1.5,BR,1683034575
261,waingapu,-9.6567,120.2641,26.05,85,77,4.77,ID,1683034575
262,morehead city,34.7229,-76.726,19.0,51,0,5.66,US,1683034575
263,nikolayevsk-on-amure,53.1406,140.73,0.07,98,100,1.34,RU,1683034575
264,castiglione del lago,43.1271,12.0453,21.62,78,100,3.31,IT,1683034575
265,enriquillo,17.9,-71.2333,26.82,69,38,4.25,DO,1683034576
266,arkhangel'sk,64.5401,40.5433,8.29,64,100,3.62,RU,1683034576
267,egilsstadir,65.2653,-14.3948,2.95,48,75,1.54,IS,1683034576
268,igarka,67.4667,86.5833,-2.39,94,99,3.24,RU,1683034576
269,eyl,7.9803,49.8164,32.84,59,67,5.21,SO,1683034576
270,maloye ganyushkino,46.6,49.2667,15.68,80,100,7.73,KZ,1683034577
271,chernomorskoye,45.5039,32.6997,13.31,56,0,3.35,UA,1683034577
272,idri,27.5,13.2667,35.28,11,9,0.4,LY,1683034577
273,ocean shores,46.9737,-124.1563,11.12,90,100,1.54,US,1683034577
274,sanctuary point,-35.1114,150.629,15.97,59,0,4.74,AU,1683034577
275,chipinge,-20.1883,32.6236,24.11,43,42,2.2,ZW,1683034578
276,macapa,0.0389,-51.0664,28.99,79,75,3.09,BR,1683034578
277,cannonvale,-20.2833,148.7,24.66,78,16,5.19,AU,1683034578
278,yen vinh,18.6667,105.6667,24.88,89,28,2.38,VN,1683034579
279,elkhart,41.5823,-85.8344,5.21,88,100,8.75,US,1683034578
280,camrose,53.0168,-112.8353,6.74,87,100,3.55,CA,1683034579
281,lucelia,-21.7203,-51.0189,23.21,64,0,2.17,BR,1683034580
282,stamford,41.0534,-73.5387,10.99,90,100,3.13,US,1683034580
283,ashdod,31.8167,34.65,25.66,67,0,7.07,IL,1683034580
284,miracema do tocantins,-9.5618,-48.3967,27.81,71,96,1.62,BR,1683034580
285,bodo,67.28,14.405,3.86,86,75,7.2,NO,1683034581
286,nova sintra,14.8667,-24.7167,20.84,82,57,7.27,CV,1683034581
287,bamboo flat,11.7,92.7167,29.99,71,100,3.79,IN,1683034581
288,as sulayyil,20.4607,45.5779,36.14,18,13,6.7,SA,1683034581
289,tsuyama,35.05,134.0,9.91,71,100,0.32,JP,1683034582
290,kayangel,8.0823,134.7173,28.35,79,95,5.65,PW,1683034582
291,gallup,35.5281,-108.7426,8.42,52,75,0.0,US,1683034582
292,mata-utu,-13.2816,-176.1745,28.35,76,11,10.97,WF,1683034582
293,kingston,17.997,-76.7936,29.53,73,20,6.69,JM,1683034431
294,gebeit,21.0667,36.3167,32.57,13,30,4.96,SD,1683034583
295,dul'durga,50.6761,113.5931,2.09,44,1,7.33,RU,1683034583
296,hasaki,35.7333,140.8333,13.45,55,0,4.24,JP,1683034583
297,northport,33.229,-87.5772,15.63,72,0,0.0,US,1683034570
298,jieshi,22.8134,115.8257,22.52,85,0,4.82,CN,1683034584
299,matthew town,20.95,-73.6667,28.03,69,17,1.71,BS,1683034584
300,bowen,-20.0167,148.2333,23.94,78,8,6.14,AU,1683034584
301,mossel bay,-34.1831,22.146,18.96,79,89,5.48,ZA,1683034584
302,labytnangi,66.6572,66.4183,2.21,99,100,7.58,RU,1683034584
303,booue,-0.0921,11.9385,29.82,68,75,0.11,GA,1683034585
304,kirakira,-10.4544,161.9205,26.79,88,78,4.56,SB,1683034585
305,pathein,16.7833,94.7333,29.28,69,14,3.12,MM,1683034585
306,bahau,2.8079,102.4049,24.91,95,62,1.37,MY,1683034585
307,jutai,-5.1833,-68.9,23.01,100,100,0.33,BR,1683034586
308,oriximina,-1.7656,-55.8661,24.43,95,100,1.49,BR,1683034586
309,serdar,38.9764,56.2757,23.28,42,3,8.52,TM,1683034586
310,tralee,52.2704,-9.7026,16.14,59,40,5.14,IE,1683034586
311,sheridan,44.8333,-106.9173,14.06,65,0,3.09,US,1683034586
312,antsiranana,-12.2787,49.2917,29.42,54,75,3.09,MG,1683034587
313,castillos,-34.1667,-53.8333,16.55,51,4,2.5,UY,1683034400
314,pisco,-13.7,-76.2167,21.03,78,1,3.6,PE,1683034587
315,rawatsar,29.2833,74.3833,30.55,33,98,4.58,IN,1683034587
316,sinabang,2.4803,96.3801,27.18,81,100,1.78,ID,1683034587
317,greenland,43.0362,-70.8328,11.69,90,100,6.69,US,1683034588
318,vernon,50.2581,-119.2691,14.05,82,100,1.79,CA,1683034588
319,rikaze,29.25,88.8833,6.11,57,100,4.72,CN,1683034588
320,brokopondo,4.75,-55.1667,28.11,67,72,3.07,SR,1683034588
321,sao joao da barra,-21.6403,-41.0511,23.05,72,20,0.83,BR,1683034588
322,dryden,49.7833,-92.7503,1.16,55,0,4.63,CA,1683034589
323,turpan,42.9333,89.1667,19.56,27,100,1.96,CN,1683034589
324,bonthe,7.5264,-12.505,30.81,65,89,2.61,SL,1683034589
325,hondomachi-hondo,32.45,130.2,16.38,68,54,2.8,JP,1683034589
326,mammoth lakes,37.6485,-118.9721,-2.59,68,0,2.06,US,1683034589
327,kununurra,-15.7667,128.7333,25.99,34,57,4.12,AU,1683034590
328,zhezqazghan,47.7833,67.7667,18.32,16,0,7.0,KZ,1683034382
329,krasnozerskoye,53.9828,79.2374,4.71,46,94,3.35,RU,1683034590
330,ar ruways,24.1103,52.7306,28.24,45,0,7.04,AE,1683034590
331,bethanie,-26.4833,17.15,30.0,5,53,7.04,NA,1683034590
332,lachi,33.3833,71.3386,21.96,66,94,3.62,PK,1683034590
333,anadyr,64.75,177.4833,-11.72,85,0,5.0,RU,1683034591
334,altai,46.3722,96.2583,0.82,20,100,9.74,MN,1683034591
335,soio,-6.1349,12.3689,28.29,77,88,3.7,AO,1683034591
336,barao de cocais,-19.9458,-43.4872,23.21,46,0,1.77,BR,1683034591
337,sangmelima,2.9333,11.9833,27.92,64,79,1.39,CM,1683034591
338,charters towers,-20.1,146.2667,20.46,85,58,3.7,AU,1683034592
339,yongbyon,39.8133,125.8042,11.51,47,81,0.99,KP,1683034592
340,saint-philippe,-21.3585,55.7679,26.77,76,47,3.01,RE,1683034592
341,nguigmi,14.2495,13.1092,35.57,21,0,6.53,NE,1683034592
342,corn island,12.1694,-83.0418,27.69,82,100,7.85,NI,1683034593
343,sebastopol,44.6,33.5333,13.73,64,34,5.21,UA,1683034593
344,santo antonio do ica,-3.1022,-67.9397,26.17,93,100,0.64,BR,1683034593
345,camacari,-12.6975,-38.3242,25.87,79,92,1.11,BR,1683034593
346,hobyo,5.3505,48.5268,29.79,73,100,8.22,SO,1683034593
347,pristen',51.2355,36.6959,11.95,44,6,2.46,RU,1683034594
348,cockburn town,21.4612,-71.1419,27.09,71,62,0.78,TC,1683034594
349,sao gabriel,-30.3364,-54.32,14.95,93,100,4.8,BR,1683034594
350,bellampalli,19.0558,79.493,28.98,61,48,4.43,IN,1683034594
351,sokol,59.4617,40.1206,12.0,46,17,4.01,RU,1683034594
352,arraial do cabo,-22.9661,-42.0278,26.92,65,20,2.57,BR,1683034595
353,susuman,62.7833,148.1667,-8.72,93,100,1.36,RU,1683034595
354,feijo,-8.1642,-70.3536,25.42,95,83,1.76,BR,1683034595
355,ha tinh,18.3333,105.9,24.36,88,9,2.39,VN,1683034334
356,saint-francois,46.4154,3.9054,18.87,54,75,4.12,FR,1683034595
357,gilgit,35.9221,74.3087,17.71,56,100,1.77,PK,1683034596
358,onega,63.9061,38.1404,5.07,89,100,4.65,RU,1683034596
359,walvis bay,-22.9575,14.5053,15.61,55,16,7.85,NA,1683034596
360,miles city,46.4083,-105.8406,8.54,42,0,5.14,US,1683034597
361,klyuchi,52.2667,79.1667,5.01,44,70,3.41,RU,1683034597
362,melfort,52.8667,-104.6177,8.07,49,42,6.69,CA,1683034597
363,kidal,18.4411,1.4078,41.23,6,5,3.23,ML,1683034597
364,novoishimskiy,53.1981,66.7694,15.85,20,13,3.62,KZ,1683034597
365,malumfashi,11.7853,7.6218,38.68,10,8,5.38,NG,1683034598
366,kirensk,57.7853,108.1119,-3.44,96,93,1.11,RU,1683034598
367,taro,-8.3862,115.28,25.0,97,100,0.53,ID,1683034598
368,caucete,-31.6518,-68.2811,15.3,35,0,1.92,AR,1683034598
369,hargeysa,9.56,44.065,26.1,55,100,4.62,SO,1683034598
370,merida,20.9667,-89.6167,25.57,83,100,6.17,MX,1683034421
371,san jose de las matas,19.3391,-70.9382,24.64,61,46,1.55,DO,1683034599
372,dalbandin,28.8947,64.4101,32.44,13,56,0.89,PK,1683034599
373,nuuk,64.1835,-51.7216,3.34,70,0,4.63,GL,1683034599
374,grand falls-windsor,48.9332,-55.6649,5.84,64,36,2.24,CA,1683034599
375,bishnupur,23.0833,87.3167,32.12,35,67,4.04,IN,1683034600
376,tacloban,11.243,125.0081,25.61,94,100,1.74,PH,1683034600
377,lionel town,17.8101,-77.2406,29.94,62,51,5.18,JM,1683034600
378,hammerfest,70.6634,23.6821,-1.75,64,75,5.14,NO,1683034600
379,vredendal,-31.6683,18.5012,22.47,37,100,5.48,ZA,1683034600
380,road town,18.4167,-64.6167,30.02,62,40,4.12,VG,1683034601
381,kavaratti,10.5669,72.642,29.07,67,21,4.22,IN,1683034601
382,naze,28.3667,129.4833,20.51,69,1,7.91,JP,1683034602
383,sakaiminato,35.55,133.2333,11.99,82,75,2.06,JP,1683034602
384,al hudaydah,14.7978,42.9545,30.55,65,59,6.58,YE,1683034602
385,victorica,-36.2151,-65.4359,14.87,28,0,2.13,AR,1683034603
386,khash,28.2211,61.2158,27.48,17,89,4.71,IR,1683034603
387,pontes e lacerda,-15.2261,-59.3353,28.01,72,26,1.09,BR,1683034604
388,chandler,33.3062,-111.8412,20.33,31,40,3.09,US,1683034604
389,comodoro rivadavia,-45.8667,-67.5,7.92,49,0,5.14,AR,1683034604
390,silsbee,30.3491,-94.178,19.86,97,99,1.37,US,1683034604
391,roma,43.2128,-75.4557,8.79,74,100,2.06,US,1683034412
392,chagoda,59.164,35.3285,14.58,47,98,5.15,RU,1683034605
393,marsh harbour,26.5412,-77.0636,25.48,65,0,5.74,BS,1683034522
394,sitka,57.0531,-135.33,8.94,87,100,4.63,US,1683034605
395,kurtamysh,54.9103,64.4319,15.92,30,88,2.12,RU,1683034605
396,crane,31.3974,-102.3501,20.47,70,100,5.66,US,1683034606
397,i-n-salah,27.1935,2.4607,38.08,10,0,7.0,DZ,1683034606
398,planaltina,-15.4528,-47.6142,26.3,38,0,1.38,BR,1683034363
399,yarmouth,41.7057,-70.2286,16.09,69,40,4.63,US,1683034606
400,rio grande,-32.035,-52.0986,16.06,87,100,5.16,BR,1683034606
401,okha,53.5739,142.9478,-4.59,91,57,1.61,RU,1683034607
402,jiexiu,37.0244,111.9125,20.25,52,100,3.68,CN,1683034607
403,bang saphan,11.2126,99.5117,27.64,82,100,1.09,TH,1683034607
404,papao,-17.75,-149.55,25.82,81,100,8.48,PF,1683034607
405,newman,37.3138,-121.0208,10.72,88,100,0.89,US,1683034607
406,cabo san lucas,22.8909,-109.9124,19.78,61,40,1.54,MX,1683034608
407,lagos,6.5833,3.75,32.18,59,99,4.13,NG,1683034156
408,vinga,46.0167,21.2,24.01,28,0,5.14,RO,1683034608
409,christchurch,-43.5333,172.6333,17.96,61,5,2.57,NZ,1683034310
410,impfondo,1.6381,18.0667,29.5,64,98,1.74,CG,1683034608
411,mosjoen,65.836,13.1908,8.29,53,40,2.57,NO,1683034609
412,porto seguro,-16.4497,-39.0647,25.29,88,40,2.06,BR,1683034609
413,hinthada,17.6333,95.4667,31.33,49,60,4.86,MM,1683034609
414,deniliquin,-35.5333,144.9667,13.3,68,62,3.55,AU,1683034609
415,lata,40.1629,-8.3327,32.26,16,100,2.69,PT,1683034609
416,lauro de freitas,-12.8944,-38.3272,26.01,89,75,3.09,BR,1683034610
417,as samawah,31.332,45.2944,30.65,12,0,7.4,IQ,1683034610
418,bernissart,50.4746,3.6496,16.67,58,75,5.14,BE,1683034610
419,north battleford,52.7834,-108.2847,12.05,35,0,4.12,CA,1683034610
420,kabare,-2.4683,28.8242,21.63,84,60,0.95,CD,1683034610
421,haimen,23.1935,116.6142,23.94,86,0,2.95,CN,1683034611
422,"laikit, laikit ii (dimembe)",1.4792,124.9735,24.47,94,40,0.51,ID,1683034611
423,calama,-22.4667,-68.9333,13.27,16,0,9.26,CL,1683034611
424,san jose,37.3394,-121.895,9.76,87,100,6.71,US,1683033969
425,zaraysk,54.7653,38.8836,11.62,43,17,2.26,RU,1683034611
426,boende,-0.2167,20.8667,22.88,91,100,1.41,CD,1683034611
427,anloga,5.7947,0.8973,30.16,68,94,5.33,GH,1683034612
428,howrah,22.5892,88.3103,31.0,55,20,6.69,IN,1683034612
429,bardai,11.65,7.2333,38.32,11,8,4.68,NG,1683034612
430,novodvinsk,64.4165,40.8122,8.13,66,100,3.67,RU,1683034612
431,ypsonas,34.6884,32.9574,22.47,53,20,5.66,CY,1683034612
432,vila franca do campo,37.7167,-25.4333,17.23,68,12,4.92,PT,1683034613
433,solleftea,63.1667,17.2667,5.95,83,48,3.36,SE,1683034613
434,kairouan,35.6781,10.0963,20.01,52,75,1.54,TN,1683034613
435,al jubayl,27.0112,49.6583,26.84,44,0,7.92,SA,1683034613
436,broome,42.2506,-75.833,7.72,83,100,4.63,US,1683034613
437,barrouallie,13.2333,-61.2667,28.79,70,75,3.6,VC,1683034614
438,kalmunai,7.4167,81.8167,26.24,87,100,4.02,LK,1683034614
439,cambria,35.5641,-121.0808,10.09,93,93,0.93,US,1683034336
440,briare,47.6334,2.7438,20.34,61,65,4.68,FR,1683034614
441,mount isa,-20.7333,139.5,18.87,32,4,4.12,AU,1683034614
442,chernyshevskiy,63.0128,112.4714,-3.44,94,92,3.15,RU,1683034615
443,tangalle,6.024,80.7911,26.09,80,100,2.88,LK,1683034615
444,mili,6.0815,171.735,27.4,81,100,6.14,MH,1683034615
445,alto barinas,8.5931,-70.2261,30.04,48,6,3.35,VE,1683034615
446,claveria,18.6074,121.0832,26.52,88,6,5.94,PH,1683034615
447,businga,3.3333,20.8833,34.03,37,91,1.2,CD,1683034616
448,aitape,-3.1374,142.3475,25.56,90,94,2.25,PG,1683034616
449,aldan,58.6031,125.3894,-0.03,98,100,3.9,RU,1683034616
450,xilin hot,43.9667,116.0333,17.42,20,9,2.95,CN,1683034616
451,mountain home,43.133,-115.6912,12.71,58,75,4.63,US,1683034616
452,skowhegan,44.7651,-69.7192,12.54,93,99,3.31,US,1683034617
453,itamaraca,-7.7478,-34.8256,29.03,65,37,3.52,BR,1683034617
454,tofol,5.3248,163.0078,27.43,82,100,5.98,FM,1683034617
455,shilin,24.8188,103.3324,20.8,50,85,4.5,CN,1683034617
456,kaa-khem,51.6833,94.7333,3.94,46,97,3.67,RU,1683034617
457,moranbah,-22.0016,148.0466,20.07,88,53,4.01,AU,1683034618
458,uva,56.9908,52.1852,15.64,77,100,4.27,RU,1683034618
459,revda,56.801,59.9303,21.06,43,11,2.38,RU,1683034618
460,el calafate,-50.3408,-72.2768,4.82,68,100,4.08,AR,1683034618
461,alesund,62.4723,6.1549,9.08,74,20,5.66,NO,1683034618
462,emerald,-23.5333,148.1667,17.41,54,45,4.86,AU,1683034619
463,khanty-mansiysk,61.0042,69.0019,11.73,30,0,4.92,RU,1683034619
464,naja' hammadi,26.0495,32.2414,34.67,9,0,4.51,EG,1683034619
465,gordonvale,-17.0936,145.7842,25.88,90,54,2.4,AU,1683034619
466,les anglais,18.3054,-74.2197,29.03,64,29,2.23,HT,1683034620
467,tichigan,42.8289,-88.1976,7.83,63,75,8.49,US,1683034620
468,luganville,-15.5333,167.1667,26.69,87,30,4.25,VU,1683034620
469,jurm,36.8648,70.8342,17.36,41,81,1.44,AF,1683034621
470,martapura,-3.4167,114.85,26.05,94,20,2.06,ID,1683034621
471,serang,-6.1149,106.1502,26.81,83,19,0.89,ID,1683034621
472,fada,9.5667,8.3,34.35,25,96,3.05,NG,1683034622
473,selfoss,63.9331,-20.9971,8.36,61,100,3.61,IS,1683034622
474,hotan,37.0997,79.9269,23.05,13,100,2.84,CN,1683034622
475,fort mcmurray,56.7268,-111.381,14.77,51,75,3.09,CA,1683034623
476,kloulklubed,7.0419,134.2556,27.28,76,98,7.12,PW,1683034623
477,twon-brass,4.3151,6.2418,28.74,69,70,3.83,NG,1683034623
478,bac lieu,9.285,105.7244,29.47,75,8,7.05,VN,1683034624
479,nizhniy kuranakh,58.8353,125.4869,1.35,96,100,3.45,RU,1683034624
480,alvesta,56.8993,14.5556,12.15,30,0,5.66,SE,1683034625
481,misratah,32.3754,15.0925,20.25,64,3,8.62,LY,1683034625
482,kalat,29.0225,66.5916,20.6,24,13,6.43,PK,1683034625
483,tomatlan,19.9333,-105.25,22.36,29,76,0.94,MX,1683034626
484,camiri,-20.05,-63.5167,12.88,88,100,0.0,BO,1683034626
485,geraldton,-28.7667,114.6,18.23,68,10,4.63,AU,1683034626
486,sisimiut,66.9395,-53.6735,0.26,72,15,2.11,GL,1683034627
487,remire-montjoly,4.9167,-52.2667,29.02,70,75,5.14,GF,1683034627
488,qamdo,31.1667,97.2333,4.36,37,9,3.79,CN,1683034627
489,santana,-0.0583,-51.1817,29.1,79,75,3.09,BR,1683034627
490,torghay,49.6339,63.4981,19.14,25,10,5.57,KZ,1683034628
491,messaad,34.1543,3.5031,26.5,6,7,3.25,DZ,1683034628
492,chepo,9.1667,-79.1,30.12,71,56,3.84,PA,1683034628
493,port augusta,-32.5,137.7667,15.08,62,0,3.44,AU,1683034629
494,kolonia town,6.964,158.206,27.0,89,100,2.57,FM,1683034629
495,homer,59.6425,-151.5483,3.94,83,100,2.68,US,1683034629
496,proletariy,58.4342,31.7046,14.91,47,100,7.03,RU,1683034629
497,puno,-15.8333,-70.0333,7.76,49,3,1.35,PE,1683034480
498,daura,11.5538,11.4085,39.1,14,99,3.67,NG,1683034630
499,carutapera,-1.195,-46.02,30.23,65,31,2.42,BR,1683034630
500,masterton,-40.9597,175.6575,16.6,87,100,2.41,NZ,1683034630
501,markaz-e woluswali-ye achin,34.1258,70.7078,18.01,78,44,3.17,AF,1683034631
502,hampton bays,40.869,-72.5176,11.71,90,100,5.14,US,1683034456
503,nadi,-17.8,177.4167,25.0,83,40,1.54,FJ,1683034631
504,chingirlau,51.095,54.0814,24.26,26,100,4.96,KZ,1683034631
505,badagry,6.4167,2.8833,31.01,64,29,5.74,NG,1683034631
506,zhanaozen,43.3,52.8,16.04,78,100,4.75,KZ,1683034632
507,puerto armuelles,8.2833,-82.8667,25.99,74,55,0.5,PA,1683034632
508,dellys,36.9172,3.9131,20.02,57,39,4.14,DZ,1683034632
509,olinda,-8.0089,-34.8553,28.85,74,75,4.12,BR,1683034632
510,huicheng,23.0385,116.2899,21.51,85,0,2.64,CN,1683034632
511,mengellang,7.6957,134.6305,26.95,77,99,6.26,PW,1683034633
512,villa gesell,-37.2639,-56.973,13.36,44,0,3.47,AR,1683034633
513,boguchany,58.3814,97.4531,0.51,92,98,3.15,RU,1683034633
514,zalaegerszeg,46.84,16.8439,18.77,85,100,2.7,HU,1683034633
515,la ronge,55.1001,-105.2842,10.14,40,75,4.63,CA,1683034634
516,atafu village,-8.5421,-172.5159,28.76,76,68,6.16,TK,1683034634
517,komsomol'skiy,43.9783,46.6985,17.09,52,100,6.26,RU,1683034634
518,rongelap,11.1635,166.8941,27.11,78,99,10.07,MH,1683034634
519,peace river,56.2501,-117.286,13.14,66,20,2.06,CA,1683034635
520,sandnessjoen,66.0217,12.6316,8.29,82,75,2.68,NO,1683034635
521,golyshmanovo,56.3979,68.3728,13.01,27,98,2.04,RU,1683034635
522,pokhara,28.2333,83.9833,17.34,77,88,1.87,NP,1683034504
523,tsiombe,-25.3,45.4833,21.22,54,2,4.54,MG,1683034635
524,vilhena,-12.7406,-60.1458,23.12,94,40,3.6,BR,1683034636
525,salacgriva,57.7536,24.3581,5.1,92,100,7.89,LV,1683034636
526,el jadid,33.2549,-8.506,22.42,69,77,5.4,MA,1683034636
527,bairnsdale,-37.8333,147.6167,11.7,90,63,2.52,AU,1683034637
528,tarakan,3.3,117.6333,28.42,72,2,1.55,ID,1683034637
529,katabu,-4.9333,122.5167,24.52,94,16,1.86,ID,1683034637
530,tezu,27.9167,96.1667,21.29,72,65,0.83,IN,1683034637
531,talara,-4.5772,-81.2719,25.42,83,40,7.72,PE,1683034637
532,tortoli,39.9256,9.6572,17.9,88,40,4.12,IT,1683034638
533,kupang,-10.1667,123.5833,26.32,78,20,4.63,ID,1683034638
534,recreo,-29.2818,-65.061,15.47,39,100,3.78,AR,1683034638
535,weno,7.4515,151.8468,27.97,89,100,5.14,FM,1683034638
536,caxito,-8.5785,13.6643,34.0,44,91,1.42,AO,1683034638
537,moyynkum,44.2914,72.9469,13.75,19,0,5.88,KZ,1683034639
538,shahrud,36.4182,54.9763,16.28,54,0,6.96,IR,1683034639
539,karatau,43.1667,70.4667,14.55,29,28,7.67,KZ,1683034639
540,ambovombe,-25.1667,46.0833,20.57,58,5,4.25,MG,1683034639
541,wanning,18.8003,110.3967,25.21,91,8,1.97,CN,1683034639
542,colonia,50.9333,6.95,13.79,62,75,4.12,DE,1683034407
543,chiroqchi,39.0336,66.5722,22.85,34,79,5.13,UZ,1683034640
544,northam,51.0333,-4.2167,18.47,82,100,3.3,GB,1683034640
545,ballina,-28.8667,153.5667,17.1,61,100,2.9,AU,1683034640
546,sidi ifni,29.3797,-10.173,29.86,67,10,4.06,MA,1683034640
547,gobabis,-22.45,18.9667,26.62,27,97,1.71,NA,1683034640
548,kinkala,-4.3614,14.7644,27.33,75,98,1.36,CG,1683034641
549,lautoka,-17.6167,177.4667,24.92,83,40,1.54,FJ,1683034641
550,zaragoza,41.6561,-0.8773,28.25,15,0,4.63,ES,1683034408
551,city of balikpapan,-1.242,116.8942,25.97,94,20,1.03,ID,1683034641
552,tynda,55.1667,124.7167,3.39,97,100,2.72,RU,1683034642
553,sao gabriel da cachoeira,-0.1303,-67.0892,25.89,94,75,1.03,BR,1683034642
554,zouerate,22.7187,-12.4521,37.95,6,3,3.43,MR,1683034642
555,puerto deseado,-47.7503,-65.8938,9.19,52,0,8.17,AR,1683034642
556,nizhnesortymskiy,62.4397,71.7603,1.03,82,100,5.65,RU,1683034642
557,riverton,40.5219,-111.9391,18.73,35,0,5.14,US,1683034429
558,chita,52.0333,113.55,1.65,40,52,6.0,RU,1683034643
559,tulun,54.5611,100.5792,-0.14,62,62,2.21,RU,1683034643
560,sola,-13.8833,167.55,28.19,78,22,9.34,VU,1683034643
561,marquard,-28.6645,27.4305,25.67,24,36,4.78,ZA,1683034457
562,nijar,36.9665,-2.206,24.81,47,0,4.12,ES,1683034644
563,bireun,5.203,96.7009,25.99,87,100,1.68,ID,1683034644
564,santa maria do suacui,-18.1903,-42.4142,26.95,56,55,0.79,BR,1683034644
565,phan rang-thap cham,11.5667,108.9833,26.45,85,22,3.09,VN,1683034407
566,santarem,-2.4431,-54.7083,24.07,100,75,1.03,BR,1683034497
567,imbituba,-28.24,-48.6703,22.7,69,13,2.0,BR,1683034645
568,peniche,39.3558,-9.3811,31.16,68,100,3.43,PT,1683034645
569,kushiro,42.975,144.3747,4.57,93,0,2.38,JP,1683034645
